{"type":"FeatureCollection","features":[{"type":"Feature","properties":{"Name":"موقف سبرباي-طنطا"},"geometry":{"type":"Point","coordinates":[31.010541915893555,30.820700085308367]}},{"type":"Feature","properties":{"Name":"الرجدية"},"geometry":{"type":"Point","coordinates":[31.04985237121582,30.834814366656346]}},{"type":"Feature","properties":{"Name":"شبشير الحصة"},"geometry":{"type":"Point","coordinates":[31.069421768188477,30.858652837954484]}},{"type":"Feature","properties":{"Name":"محلة روح"},"geometry":{"type":"Point","coordinates":[31.084699630737305,30.878949554194303]}},{"type":"Feature","properties":{"Name":"صفت تراب"},"geometry":{"type":"Point","coordinates":[31.11461162567139,30.893865452260783]}},{"type":"Feature","properties":{"Name":"منية شنتنا عياش"},"geometry":{"type":"Point","coordinates":[31.13690614700317,30.92987500453099]}},{"type":"Feature","properties":{"Name":"المحلة الكبري"},"geometry":{"type":"Point","coordinates":[31.168127059936523,30.972126590449996]}}]}